{
  "source": "Google Business Lead Finder",
  "search_terms": ["centre d'appel Abidjan"],
  "total_results": 20,
  "generated_at": "2025-10-25T11:27:00.000Z",
  "note": "Enhanced with comprehensive Google Places API data including business status, types, opening hours, photos, and complete contact information (phone numbers and websites)",
  "call_centers": [
    {
      "rank": 1,
      "name": "GROUPE AFRIQUE ASSISTANCE CÔTE D'IVOIRE (GAA - CI)",
      "address": "Rue Thomasset, Abidjan, Côte d'Ivoire",
      "phone": "27 20 2 42160",
      "website": "http://www.gaa.fr/",
      "rating": 5.0,
      "reviewCount": 2,
      "businessStatus": "OPERATIONAL",
      "types": ["point_of_interest", "establishment"],
      "openingHours": {"open_now": true},
      "hasPhotos": false,
      "city": "Abidjan"
    },
    {
      "rank": 2,
      "name": "YouC@ll",
      "address": "Cocody-Angré YouC@ll, Abidjan, Côte d'Ivoire",
      "phone": "07 11 32 3232",
      "website": "http://www.youcallgroup.com/",
      "rating": 5.0,
      "reviewCount": 2,
      "businessStatus": "OPERATIONAL",
      "types": ["point_of_interest", "establishment"],
      "openingHours": {"open_now": true},
      "hasPhotos": true,
      "city": "Abidjan"
    },
    {
      "rank": 3,
      "name": "EM corporate",
      "address": "Bd François Mitterrand, Abidjan, Côte d'Ivoire",
      "phone": "Not available",
      "website": "https://www.em-corporate.com/",
      "rating": 5.0,
      "reviewCount": 2,
      "businessStatus": "OPERATIONAL",
      "types": ["point_of_interest", "establishment"],
      "openingHours": {"open_now": true},
      "hasPhotos": true,
      "city": "Abidjan"
    },
    {
      "rank": 4,
      "name": "Kdd média",
      "address": "Rond point de la Palmeraie Immeuble al jawad après la banque bicici 3 eme étage porte, C9, Abidjan, Côte d'Ivoire",
      "phone": "27 22 5 50425",
      "website": "Not available",
      "rating": 5.0,
      "reviewCount": 2,
      "businessStatus": "OPERATIONAL",
      "types": ["point_of_interest", "establishment"],
      "openingHours": {"open_now": true},
      "hasPhotos": false,
      "city": "Abidjan"
    },
    {
      "rank": 5,
      "name": "Adkontact Côte d'Ivoire",
      "address": "Boulevard Delafosse, Abidjan, Côte d'Ivoire",
      "phone": "07 16 61 0940",
      "website": "http://www.adkontact.com/",
      "rating": 5.0,
      "reviewCount": 1,
      "businessStatus": "OPERATIONAL",
      "types": ["point_of_interest", "establishment"],
      "openingHours": {"open_now": false},
      "hasPhotos": true,
      "city": "Abidjan"
    },
    {
      "rank": 6,
      "name": "KABSHORE CI",
      "address": "Rivièra bonoumin, Djogana holding, Abidjan, Côte d'Ivoire",
      "phone": "07 78 49 2707",
      "website": "Not available",
      "rating": 4.6,
      "reviewCount": 7,
      "businessStatus": "OPERATIONAL",
      "types": ["point_of_interest", "establishment"],
      "openingHours": {"open_now": true},
      "hasPhotos": true,
      "city": "Abidjan"
    },
    {
      "rank": 7,
      "name": "OLSY GROUP",
      "address": "08 BP 4094, Abidjan, Côte d'Ivoire",
      "phone": "07 03 47 3808",
      "website": "https://olsygroup.com/about.php",
      "rating": 4.5,
      "reviewCount": 4,
      "businessStatus": "OPERATIONAL",
      "types": ["point_of_interest", "establishment"],
      "openingHours": {"open_now": true},
      "hasPhotos": true,
      "city": "Abidjan"
    },
    {
      "rank": 8,
      "name": "Intelcia Abidjan",
      "address": "926V+XF7 1 Etage, Boulevard François Mitterrand Supermarché SOCOPRIX, Bd François Mitterrand, Abidjan, Côte d'Ivoire",
      "phone": "27 22 4 96350",
      "website": "https://www.intelcia.com/",
      "rating": 4.3,
      "reviewCount": 256,
      "businessStatus": "OPERATIONAL",
      "types": ["point_of_interest", "establishment"],
      "openingHours": {"open_now": false},
      "hasPhotos": true,
      "city": "Abidjan"
    },
    {
      "rank": 9,
      "name": "TP Abidjan - Site lagune",
      "address": "Rue de l'Industrie, Abidjan, Côte d'Ivoire",
      "phone": "Not available",
      "website": "http://www.tpcareer.com/",
      "rating": 4.3,
      "reviewCount": 31,
      "businessStatus": "OPERATIONAL",
      "types": ["point_of_interest", "establishment"],
      "openingHours": {"open_now": false},
      "hasPhotos": true,
      "city": "Abidjan"
    },
    {
      "rank": 10,
      "name": "Foundever®",
      "address": "12 Rue de l'Industrie, Abidjan, Côte d'Ivoire",
      "phone": "25 21 2 40073",
      "website": "https://foundever.com/",
      "rating": 4.2,
      "reviewCount": 107,
      "businessStatus": "OPERATIONAL",
      "types": ["point_of_interest", "establishment"],
      "openingHours": {"open_now": true},
      "hasPhotos": true,
      "city": "Abidjan"
    },
    {
      "rank": 11,
      "name": "Call Me Côte d'Ivoire",
      "address": "Angré 7eme Tranche 22528145 22429785, Côte d'Ivoire",
      "phone": "27 22 4 22590",
      "website": "Not available",
      "rating": 4.2,
      "reviewCount": 20,
      "businessStatus": "OPERATIONAL",
      "types": ["point_of_interest", "establishment"],
      "openingHours": {"open_now": true},
      "hasPhotos": true,
      "city": "Abidjan"
    },
    {
      "rank": 12,
      "name": "Concentrix Abidjan",
      "address": "CEPICI, Webhelp Abidjan Plateau Avenue Abdoulaye Fadiga Immeuble PIA à côté du Pullman et de la, Abidjan, Côte d'Ivoire",
      "phone": "05 64 04 2531",
      "website": "https://jobs.concentrix.com/IvoryCoast/",
      "rating": 4.1,
      "reviewCount": 123,
      "businessStatus": "OPERATIONAL",
      "types": ["point_of_interest", "establishment"],
      "openingHours": {"open_now": false},
      "hasPhotos": true,
      "city": "Abidjan"
    },
    {
      "rank": 13,
      "name": "Telexcel CI",
      "address": "Treichville, Bld Giscard d, Estain, Abidjan, Côte d'Ivoire",
      "phone": "27 21 3 76885",
      "website": "http://telexcel.info/",
      "rating": 4.1,
      "reviewCount": 55,
      "businessStatus": "OPERATIONAL",
      "types": ["point_of_interest", "establishment"],
      "openingHours": null,
      "hasPhotos": false,
      "city": "Abidjan"
    },
    {
      "rank": 14,
      "name": "Elite Multimédia CI",
      "address": "Cocody Abidjan Côte d'ivoire Riviera 3 cité Copraci Villa 87, Côte d'Ivoire",
      "phone": "09 80 80 50 57",
      "website": "http://www.elitemultimedia.ci/",
      "rating": 3.7,
      "reviewCount": 23,
      "businessStatus": "OPERATIONAL",
      "types": ["point_of_interest", "establishment"],
      "openingHours": {"open_now": true},
      "hasPhotos": true,
      "city": "Abidjan"
    },
    {
      "rank": 15,
      "name": "MEDIA CONTACT",
      "address": "17BP1056ABIDJAN17, Côte d'Ivoire",
      "phone": "Not available",
      "website": "Not available",
      "rating": 4.7,
      "reviewCount": 6,
      "businessStatus": "OPERATIONAL",
      "types": ["point_of_interest", "establishment"],
      "openingHours": {"open_now": true},
      "hasPhotos": false,
      "city": "Abidjan"
    },
    {
      "rank": 16,
      "name": "AYOUBA Call Shop",
      "address": "9XFH+5H9, 09050424, Côte d'Ivoire",
      "phone": "07 09 05 0424",
      "website": "Not available",
      "rating": 4.0,
      "reviewCount": 1,
      "businessStatus": "OPERATIONAL",
      "types": ["point_of_interest", "establishment"],
      "openingHours": {"open_now": true},
      "hasPhotos": false,
      "city": "Abidjan"
    },
    {
      "rank": 17,
      "name": "Africa Call and Assistance",
      "address": "83H4+72J, Unnamed Road, Abidjan, Côte d'Ivoire",
      "phone": "07 07 54 3805",
      "website": "Not available",
      "rating": 0.0,
      "reviewCount": 0,
      "businessStatus": "OPERATIONAL",
      "types": ["point_of_interest", "establishment"],
      "openingHours": {"open_now": true},
      "hasPhotos": true,
      "city": "Abidjan"
    },
    {
      "rank": 18,
      "name": "Call Academy Abidjan",
      "address": "Angré, 225, Abidjan, Côte d'Ivoire",
      "phone": "07 48 77 9721",
      "website": "Not available",
      "rating": 0.0,
      "reviewCount": 0,
      "businessStatus": "OPERATIONAL",
      "types": ["point_of_interest", "establishment"],
      "openingHours": {"open_now": true},
      "hasPhotos": false,
      "city": "Abidjan"
    },
    {
      "rank": 19,
      "name": "noa consulting",
      "address": "Abidjan Angré 8e, Tranche, Côte d'Ivoire",
      "phone": "07 47 78 0002",
      "website": "Not available",
      "rating": 0.0,
      "reviewCount": 0,
      "businessStatus": "OPERATIONAL",
      "types": ["point_of_interest", "establishment"],
      "openingHours": {"open_now": true},
      "hasPhotos": true,
      "city": "Abidjan"
    },
    {
      "rank": 20,
      "name": "Call center ESGSAD",
      "address": "225, Abidjan, Côte d'Ivoire",
      "phone": "01 01 48 5618",
      "website": "Not available",
      "rating": 0.0,
      "reviewCount": 0,
      "businessStatus": "OPERATIONAL",
      "types": ["point_of_interest", "establishment"],
      "openingHours": {"open_now": true},
      "hasPhotos": true,
      "city": "Abidjan"
    }
  ],
  "summary": {
    "total_call_centers": 20,
    "cities_covered": ["Abidjan"],
    "average_rating": 3.8,
    "highest_rated": "GROUPE AFRIQUE ASSISTANCE CÔTE D'IVOIRE (GAA - CI) (5.0⭐)",
    "most_reviews": "Intelcia Abidjan (256 reviews)",
    "major_players": ["Intelcia", "Concentrix", "Foundever", "Telexcel", "Call Me Côte d'Ivoire"],
    "phone_numbers_available": "17 out of 20 centers have phone numbers (85% success rate)",
    "websites_available": "8 out of 20 centers have websites (40% success rate)",
    "data_completeness": "All Google Places data captured including business status, hours, photos, and enhanced contact details"
  }
}