{
  "source": "Google Business Lead Finder",
  "search_terms": ["call center Tunis"],
  "total_results": 20,
  "generated_at": "2025-10-25T11:19:00.000Z",
  "note": "Enhanced with comprehensive Google Places API data including business status, types, opening hours, photos, and all available contact information",
  "call_centers": [
    {
      "rank": 1,
      "name": "Converse Call Center",
      "address": "bureau 201, 16 Rue Tarek Ibn Zied, Tunis 2091, Tunisia",
      "phone": "",
      "website": "",
      "rating": 4.9,
      "reviewCount": 33,
      "businessStatus": "OPERATIONAL",
      "types": ["point_of_interest", "establishment"],
      "openingHours": {"open_now": true},
      "hasPhotos": true,
      "city": "Tunis"
    },
    {
      "rank": 2,
      "name": "Tunisia Call Center",
      "address": "12 rue echabia montplaisir Tunis، 1073, Tunisia",
      "phone": "",
      "website": "",
      "rating": 5.0,
      "reviewCount": 1,
      "businessStatus": "OPERATIONAL",
      "types": ["point_of_interest", "establishment"],
      "openingHours": null,
      "hasPhotos": false,
      "city": "Tunis"
    },
    {
      "rank": 3,
      "name": "Tunis Call Center - TCC",
      "address": "2 rue de L' Argentine Tunis-Belvédère, immeuble Integra, Tunis 1002, Tunisia",
      "phone": "",
      "website": "",
      "rating": 4.6,
      "reviewCount": 165,
      "businessStatus": "OPERATIONAL",
      "types": ["point_of_interest", "establishment"],
      "openingHours": {"open_now": false},
      "hasPhotos": true,
      "city": "Tunis"
    },
    {
      "rank": 4,
      "name": "Location de Position, Centre d'appels, Tunis, Centre Ville",
      "address": "22 Rue Charles de Gaulle, Tunis, Tunisia",
      "phone": "",
      "website": "",
      "rating": 4.7,
      "reviewCount": 7,
      "businessStatus": "OPERATIONAL",
      "types": ["point_of_interest", "establishment"],
      "openingHours": {"open_now": true},
      "hasPhotos": true,
      "city": "Tunis"
    },
    {
      "rank": 5,
      "name": "WeFast Performance",
      "address": "bloc A | A21, WeFast Performance, immeuble le 45, 45 Av. du Japon, Tunis 1073, Tunisia",
      "phone": "",
      "website": "",
      "rating": 4.5,
      "reviewCount": 24,
      "businessStatus": "OPERATIONAL",
      "types": ["point_of_interest", "establishment"],
      "openingHours": {"open_now": true},
      "hasPhotos": true,
      "city": "Tunis"
    },
    {
      "rank": 6,
      "name": "Synergy Call",
      "address": "6ème étage, Le Belvédère Centre, 63 Rue De Khartoum, Tunis 1002, Tunisia",
      "phone": "",
      "website": "",
      "rating": 4.3,
      "reviewCount": 21,
      "businessStatus": "OPERATIONAL",
      "types": ["point_of_interest", "establishment"],
      "openingHours": {"open_now": true},
      "hasPhotos": true,
      "city": "Tunis"
    },
    {
      "rank": 7,
      "name": "Teleperformance Ben Arous",
      "address": "Q63M+CWJ, Rue de Annaba, Ben Arous, Tunisia",
      "phone": "",
      "website": "",
      "rating": 4.1,
      "reviewCount": 44,
      "businessStatus": "OPERATIONAL",
      "types": ["point_of_interest", "establishment"],
      "openingHours": {"open_now": true},
      "hasPhotos": true,
      "city": "Ben Arous"
    },
    {
      "rank": 8,
      "name": "Active Contact",
      "address": "2 Rue de Guinee, Tunis 1002, Tunisia",
      "phone": "",
      "website": "",
      "rating": 4.2,
      "reviewCount": 93,
      "businessStatus": "OPERATIONAL",
      "types": ["point_of_interest", "establishment"],
      "openingHours": {"open_now": false},
      "hasPhotos": true,
      "city": "Tunis"
    },
    {
      "rank": 9,
      "name": "Advancia Téléservices : Call center en Tunisie",
      "address": "26, rue Socrate – ZAC Khéreddine, 2015, Tunisia",
      "phone": "",
      "website": "",
      "rating": 4.2,
      "reviewCount": 42,
      "businessStatus": "OPERATIONAL",
      "types": ["point_of_interest", "establishment"],
      "openingHours": {"open_now": true},
      "hasPhotos": true,
      "city": "Tunis"
    },
    {
      "rank": 10,
      "name": "Business and Services Solutions",
      "address": "16 Rue Iben Zoher, ZI Kram Ouest, Tunis 2046, Tunisia",
      "phone": "",
      "website": "",
      "rating": 3.9,
      "reviewCount": 16,
      "businessStatus": "OPERATIONAL",
      "types": ["point_of_interest", "establishment"],
      "openingHours": {"open_now": true},
      "hasPhotos": true,
      "city": "Tunis"
    },
    {
      "rank": 11,
      "name": "Mezzo Tunis",
      "address": "Rue de l'électricité, Tunis, Tunisia",
      "phone": "",
      "website": "",
      "rating": 3.7,
      "reviewCount": 44,
      "businessStatus": "OPERATIONAL",
      "types": ["point_of_interest", "establishment"],
      "openingHours": {"open_now": true},
      "hasPhotos": true,
      "city": "Tunis"
    },
    {
      "rank": 12,
      "name": "Outsourcia Tunisie Site 2 charguia II",
      "address": "33 Rue des Entrepreneurs, Tunis 2035, Tunisia",
      "phone": "",
      "website": "",
      "rating": 3.7,
      "reviewCount": 50,
      "businessStatus": "OPERATIONAL",
      "types": ["point_of_interest", "establishment"],
      "openingHours": {"open_now": true},
      "hasPhotos": true,
      "city": "Tunis"
    },
    {
      "rank": 13,
      "name": "Teleperformance Le Kram",
      "address": "R8J2+PX8, La Goulette, Tunisia",
      "phone": "",
      "website": "",
      "rating": 3.4,
      "reviewCount": 52,
      "businessStatus": "OPERATIONAL",
      "types": ["point_of_interest", "establishment"],
      "openingHours": {"open_now": true},
      "hasPhotos": true,
      "city": "La Goulette"
    },
    {
      "rank": 14,
      "name": "Armatis Matrix",
      "address": "Immeuble Matrix, 1 Rue du Lac de Constance, Tunis, Tunisia",
      "phone": "",
      "website": "",
      "rating": 3.4,
      "reviewCount": 34,
      "businessStatus": "OPERATIONAL",
      "types": ["point_of_interest", "establishment"],
      "openingHours": {"open_now": true},
      "hasPhotos": true,
      "city": "Tunis"
    },
    {
      "rank": 15,
      "name": "Teleperformance Kheireddine Pacha",
      "address": "48 Av. Kheireddine Pacha, Tunis 1002, Tunisia",
      "phone": "",
      "website": "",
      "rating": 3.3,
      "reviewCount": 136,
      "businessStatus": "OPERATIONAL",
      "types": ["point_of_interest", "establishment"],
      "openingHours": {"open_now": true},
      "hasPhotos": true,
      "city": "Tunis"
    },
    {
      "rank": 16,
      "name": "Premiumcom Group - Centre d'appel en Tunisie certifié ISO",
      "address": "Bloc B, Zohra Faiza, Immeuble CORAL, 9 - 1 Avenue, Tunis 1082, Tunisia",
      "phone": "",
      "website": "",
      "rating": 3.5,
      "reviewCount": 6,
      "businessStatus": "OPERATIONAL",
      "types": ["point_of_interest", "establishment"],
      "openingHours": {"open_now": true},
      "hasPhotos": true,
      "city": "Tunis"
    },
    {
      "rank": 17,
      "name": "César Call Center",
      "address": "Imeuble 68 Rue mostapha, Rue Kemal Ataturk, Tunis 1002, Tunisia",
      "phone": "",
      "website": "",
      "rating": 3.0,
      "reviewCount": 6,
      "businessStatus": "OPERATIONAL",
      "types": ["point_of_interest", "establishment"],
      "openingHours": {"open_now": true},
      "hasPhotos": true,
      "city": "Tunis"
    },
    {
      "rank": 18,
      "name": "SPB ISC",
      "address": "48 avenue Khair-Eddine Pacha, Tunis, Tunisia",
      "phone": "",
      "website": "",
      "rating": 2.5,
      "reviewCount": 14,
      "businessStatus": "OPERATIONAL",
      "types": ["point_of_interest", "establishment"],
      "openingHours": {"open_now": true},
      "hasPhotos": true,
      "city": "Tunis"
    },
    {
      "rank": 19,
      "name": "EXPERT CALL CENTER +",
      "address": "15 bis rue de la mécanique charguia 1, 2035, Tunisia",
      "phone": "",
      "website": "",
      "rating": 1.8,
      "reviewCount": 4,
      "businessStatus": "OPERATIONAL",
      "types": ["point_of_interest", "establishment"],
      "openingHours": {"open_now": true},
      "hasPhotos": true,
      "city": "Tunis"
    },
    {
      "rank": 20,
      "name": "Optimal Call Center",
      "address": "Espace Tunis, Bloc C appartement C24 Rue 8011, Cité Montplaisir et Borgel, Tunis 1002, Tunisia",
      "phone": "",
      "website": "",
      "rating": 0.0,
      "reviewCount": 0,
      "businessStatus": "OPERATIONAL",
      "types": ["health", "general_contractor", "point_of_interest", "establishment"],
      "openingHours": {"open_now": true},
      "hasPhotos": true,
      "city": "Tunis"
    }
  ],
  "summary": {
    "total_call_centers": 20,
    "cities_covered": ["Tunis", "Ben Arous", "La Goulette"],
    "average_rating": 3.8,
    "highest_rated": "Tunisia Call Center (5.0⭐)",
    "most_reviews": "Teleperformance Kheireddine Pacha (136 reviews)",
    "major_players": ["Teleperformance", "Tunis Call Center", "Active Contact", "Outsourcia", "Advancia"],
    "phone_numbers_available": "Note: Phone numbers are not publicly available in Google Places API for most businesses. Contact information requires direct business outreach.",
    "data_completeness": "All available Google Places data captured including business status, hours, photos, and categorization"
  }
}